[
  { "id": "1", "name": "Lagankhel", "lat": 27.6746476, "long": 85.3222147 },
  { "id": "2", "name": "Kumaripati", "lat": 27.6794377, "long": 85.3227903 },
  { "id": "3", "name": "Jawalakhel", "lat": 27.6831256, "long": 85.321608 },
  { "id": "4", "name": "Pulchowk", "lat": 27.6831597, "long": 85.318085 },
  {
    "id": "5",
    "name": "Harihar Bhawan",
    "lat": 27.6781726,
    "long": 85.3175585
  },
  { "id": "6", "name": "Kupondole", "lat": 27.6823837, "long": 85.3187517 },
  { "id": "7", "name": "Tripureshwor", "lat": 27.7013773, "long": 85.3205436 },
  { "id": "8", "name": "RNAC", "lat": 27.6950562, "long": 85.322688 },
  { "id": "9", "name": "Jamal", "lat": 27.7090207, "long": 85.3124691 },
  { "id": "10", "name": "Lainchaur", "lat": 27.7142223, "long": 85.3140652 },
  { "id": "11", "name": "Lazimpat", "lat": 27.7170193, "long": 85.3191596 },
  { "id": "12", "name": "Panipokhari", "lat": 27.7191596, "long": 85.3170633 },
  {
    "id": "13",
    "name": "Rastrapati Bhawan",
    "lat": 27.7204587,
    "long": 85.316257
  },
  {
    "id": "14",
    "name": "Teaching Hospital",
    "lat": 27.7215719,
    "long": 85.3154513
  },
  {
    "id": "15",
    "name": "Narayan Gopal Chowk",
    "lat": 27.7226945,
    "long": 85.3146448
  },
  { "id": "16", "name": "Basundhara", "lat": 27.7251316, "long": 85.3122925 },
  { "id": "17", "name": "Samakhusi", "lat": 27.7277871, "long": 85.3104329 },
  { "id": "18", "name": "Gongabu", "lat": 27.729126, "long": 85.308829 },
  { "id": "19", "name": "New Bus Park", "lat": 27.719691, "long": 85.307306 },
  { "id": "20", "name": "Godawari", "lat": 27.594886, "long": 85.391375 },
  { "id": "21", "name": "Taukhel", "lat": 27.608187, "long": 85.389308 },
  { "id": "22", "name": "Hadegau", "lat": 27.619064, "long": 85.386473 },
  { "id": "23", "name": "Badegau", "lat": 27.629277, "long": 85.384785 },
  { "id": "24", "name": "Thaiba", "lat": 27.640113, "long": 85.37896 },
  { "id": "25", "name": "Harisiddhi", "lat": 27.650564, "long": 85.377254 },
  { "id": "26", "name": "Hattiban", "lat": 27.659259, "long": 85.370981 },
  { "id": "27", "name": "Khumaltar", "lat": 27.66869, "long": 85.364566 },
  { "id": "28", "name": "Satdobato", "lat": 27.678956, "long": 85.361025 },
  { "id": "29", "name": "Ratnapark", "lat": 27.7041289, "long": 85.3100125 },
  { "id": "30", "name": "Thankot", "lat": 27.6785132, "long": 85.2719772 },
  {
    "id": "31",
    "name": "Tribhuvan Park",
    "lat": 27.6828499,
    "long": 85.2839356
  },
  { "id": "32", "name": "Checkpost", "lat": 27.6908657, "long": 85.2805758 },
  { "id": "33", "name": "Satungal", "lat": 27.6975394, "long": 85.2712391 },
  { "id": "34", "name": "Naikap", "lat": 27.6982718, "long": 85.2537813 },
  { "id": "35", "name": "Dhunge Adda", "lat": 27.6885535, "long": 85.2394868 },
  { "id": "36", "name": "Kalanki", "lat": 27.6930593, "long": 85.2389415 },
  { "id": "37", "name": "Rabi Bhawan", "lat": 27.7057822, "long": 85.335768 },
  { "id": "38", "name": "Soaltee Mod", "lat": 27.7157937, "long": 85.3249751 },
  { "id": "39", "name": "Kalimati", "lat": 27.6985841, "long": 85.3122882 },
  { "id": "40", "name": "Teku", "lat": 27.6955689, "long": 85.3111567 },
  { "id": "41", "name": "Singh Durbar", "lat": 27.7083775, "long": 85.3137277 },
  { "id": "42", "name": "Maitighar", "lat": 27.7049963, "long": 85.3184427 },
  { "id": "43", "name": "Babar Mahal", "lat": 27.7119711, "long": 85.3235732 },
  { "id": "44", "name": "Bijuli Bazar", "lat": 27.7144176, "long": 85.3208566 },
  {
    "id": "45",
    "name": "New Baneshwor",
    "lat": 27.6932261,
    "long": 85.3232921
  },
  { "id": "46", "name": "Shantinagar", "lat": 27.6878865, "long": 85.3269707 },
  { "id": "47", "name": "Tinkune", "lat": 27.6862351, "long": 85.3348675 },
  { "id": "48", "name": "Sinamangal", "lat": 27.6899892, "long": 85.3478112 },
  { "id": "49", "name": "Airport", "lat": 27.6966285, "long": 85.3598491 },
  { "id": "50", "name": "Bafal", "lat": 27.716624, "long": 85.277974 },
  { "id": "51", "name": "Sitapaila", "lat": 27.720829, "long": 85.281744 },
  { "id": "52", "name": "Swayambhu", "lat": 27.714889, "long": 85.289862 },
  { "id": "53", "name": "Banasthali", "lat": 27.716991, "long": 85.299671 },
  { "id": "54", "name": "Balaju", "lat": 27.717827, "long": 85.301852 },
  {
    "id": "55",
    "name": "Gangalal Hospital",
    "lat": 27.736276,
    "long": 85.341829
  },
  { "id": "56", "name": "Neuro Hospital", "lat": 27.736335, "long": 85.332961 },
  { "id": "57", "name": "Golfutar", "lat": 27.738278, "long": 85.324514 },
  { "id": "58", "name": "Telecom Chowk", "lat": 27.743508, "long": 85.319707 },
  { "id": "59", "name": "Hattigauda", "lat": 27.749237, "long": 85.315933 },
  { "id": "60", "name": "Chapli", "lat": 27.754978, "long": 85.311672 },
  { "id": "61", "name": "Deuba Chowk", "lat": 27.760772, "long": 85.307439 },
  { "id": "62", "name": "Buddhanilkantha", "lat": 27.7654, "long": 85.3653 },
  { "id": "63", "name": "Lamatar", "lat": 27.639138, "long": 85.355637 },
  { "id": "64", "name": "Dhungin", "lat": 27.643521, "long": 85.354212 },
  { "id": "65", "name": "Lubhu", "lat": 27.648079, "long": 85.353037 },
  { "id": "66", "name": "Sanagau", "lat": 27.655462, "long": 85.350753 },
  { "id": "67", "name": "KamalpokhariL", "lat": 27.6563, "long": 85.342 },
  { "id": "68", "name": "Krishna Mandir", "lat": 27.713868, "long": 85.328655 },
  { "id": "69", "name": "KIST Hospital", "lat": 27.675243, "long": 85.322714 },
  { "id": "70", "name": "Gwarko", "lat": 27.659808, "long": 85.324073 },
  { "id": "71", "name": "BNB Hospital", "lat": 27.676995, "long": 85.316787 },
  { "id": "72", "name": "Patan dhoka", "lat": 27.677575, "long": 85.320633 },
  { "id": "73", "name": "Thapathali", "lat": 27.691164, "long": 85.319769 },
  { "id": "74", "name": "Bhadrakali", "lat": 27.697258, "long": 85.317766 },
  { "id": "75", "name": "Kamladi", "lat": 27.706199, "long": 85.318623 },
  { "id": "76", "name": "KamalpokhariK", "lat": 27.710076, "long": 85.329151 },
  { "id": "77", "name": "Gyaneshwor", "lat": 27.705778, "long": 85.332986 },
  { "id": "78", "name": "Ratopul", "lat": 27.706367, "long": 85.340769 },
  { "id": "79", "name": "Gaushala", "lat": 27.705024, "long": 85.348358 },
  { "id": "80", "name": "Jay Bageshwori", "lat": 27.706994, "long": 85.351505 },
  { "id": "81", "name": "Mitra Park", "lat": 27.700076, "long": 85.358462 },
  { "id": "82", "name": "Chabahil", "lat": 27.720717, "long": 85.350294 },
  { "id": "83", "name": "Chuchepati", "lat": 27.726978, "long": 85.347907 },
  { "id": "84", "name": "Tusal", "lat": 27.727961, "long": 85.342735 },
  { "id": "85", "name": "Boudha", "lat": 27.721366, "long": 85.361828 },
  { "id": "86", "name": "Jorpati", "lat": 27.728049, "long": 85.396267 },
  { "id": "87", "name": "Narayantar", "lat": 27.731708, "long": 85.396863 },
  { "id": "88", "name": "Dakshin Dhoka", "lat": 27.735731, "long": 85.382088 },
  { "id": "89", "name": "Lele", "lat": 27.5833, "long": 85.3471 },
  { "id": "90", "name": "Tika Bhairav", "lat": 27.5858, "long": 85.3445 },
  { "id": "91", "name": "Takhal", "lat": 27.5875, "long": 85.3386 },
  { "id": "92", "name": "Pyan Gaun", "lat": 27.591, "long": 85.3321 },
  { "id": "93", "name": "Thecho", "lat": 27.5957, "long": 85.3256 },
  { "id": "94", "name": "Sunakothi", "lat": 27.6044, "long": 85.3166 },
  { "id": "95", "name": "Dholahiti", "lat": 27.6141, "long": 85.3083 },
  { "id": "96", "name": "Chapagaun Dobato", "lat": 27.6672, "long": 85.3208 }
]
